City_ID,City,Lat,Lng,Max Temp,Humidity,Cloudiness,Wind Speed,Country,Date
0,kapa'a,22.0752,-159.319,25.88,84,75,7.2,US,1726551207
1,tergnier,49.6561,3.3011,11.69,97,59,5.18,FR,1726551208
2,port-aux-francais,-49.35,70.2167,4.5,97,100,14.2,TF,1726551209
3,port blair,11.6667,92.75,28.02,83,75,3.09,IN,1726551211
4,camacupa,-12.0167,17.4833,21.52,52,1,0.99,AO,1726551212
5,talnakh,69.4865,88.3972,3.47,87,72,4.83,RU,1726551213
6,alotau,-10.3069,150.4462,24.01,97,100,3.52,PG,1726551214
7,klaksvik,62.2266,-6.589,12.29,84,99,13.33,FO,1726551215
8,bismarck,46.8083,-100.7837,21.71,76,20,2.24,US,1726551039
9,kansanshi,-12.0951,26.4273,22.75,22,0,4.53,ZM,1726551217
10,keflavik,64.0049,-22.5624,8.24,93,96,6.17,IS,1726551218
11,arkhangel'sk,64.5401,40.5433,10.06,81,0,2.0,RU,1726551002
12,saint-joseph,-21.3667,55.6167,24.21,67,58,3.74,RE,1726551220
13,iqaluit,63.7506,-68.5145,2.61,86,100,5.14,CA,1726551221
14,waitangi,-43.9535,-176.5597,9.9,95,100,0.89,NZ,1726551223
15,college,64.8569,-147.8028,6.43,85,100,4.63,US,1726551224
16,margaret river,-33.95,115.0667,18.39,55,0,3.15,AU,1726551225
17,san luis de la loma,17.2706,-100.8939,27.16,87,100,1.54,MX,1726551226
18,santiago de cao,-7.9589,-79.2392,16.07,88,4,2.57,PE,1726551227
19,usinsk,65.9939,57.5281,16.2,72,100,6.28,RU,1726551228
20,singkil,-7.9855,111.4161,33.32,31,33,6.61,ID,1726551229
21,adamstown,-25.066,-130.1015,19.87,87,100,7.99,PN,1726551230
22,shantobe,52.4581,68.1839,10.65,51,1,4.83,KZ,1726551231
23,muleba,-1.8397,31.6544,24.16,57,97,1.83,TZ,1726551232
24,ushuaia,-54.8,-68.3,3.81,81,75,6.69,AR,1726551233
25,turpan,42.9333,89.1667,32.74,12,0,1.64,CN,1726551235
26,quellon,-43.1167,-73.6167,6.35,79,100,2.5,CL,1726551236
27,aasiaat,68.7098,-52.8699,-2.45,90,86,1.95,GL,1726551237
28,freetown,8.484,-13.2299,25.84,83,75,3.09,SL,1726551238
29,cidreira,-30.1811,-50.2056,14.81,93,2,2.97,BR,1726551239
30,hamilton,39.1834,-84.5333,18.43,62,15,1.47,US,1726551240
31,san francisco de la paz,14.9,-86.2,21.06,97,62,0.36,HN,1726551242
32,chokwe,-24.5333,32.9833,25.32,70,81,2.78,MZ,1726551243
33,stanley,54.868,-1.6985,6.01,100,0,0.51,GB,1726551245
34,port augusta,-32.5,137.7667,23.5,12,0,3.56,AU,1726551249
35,pitimbu,-7.4706,-34.8086,23.75,84,57,4.37,BR,1726551250
36,taoudenni,22.6783,-3.9836,33.0,29,23,3.62,ML,1726551251
37,vilyuchinsk,52.9306,158.4028,14.15,61,99,4.16,RU,1726551252
38,blackmans bay,-43.0167,147.3167,13.07,64,88,6.55,AU,1726551253
39,panaba,21.2833,-88.2667,25.47,91,97,2.46,MX,1726551254
40,holualoa,19.6228,-155.9522,24.48,93,69,2.21,US,1726551075
41,saldanha,-33.0117,17.9442,5.03,79,8,3.42,ZA,1726551256
42,puerto ayora,-0.7393,-90.3518,21.23,87,75,4.81,EC,1726551258
43,montrose,38.4166,-108.2673,11.41,73,56,2.34,US,1726551259
44,edinburgh of the seven seas,-37.0676,-12.3116,11.39,75,51,14.23,SH,1726551260
45,paka,4.6374,103.4368,29.96,79,40,1.54,MY,1726551261
46,ves'yegonsk,58.664,37.2604,18.44,58,12,1.45,RU,1726551262
47,grytviken,-54.2811,-36.5092,-1.95,81,44,5.27,GS,1726551263
48,labrador city,52.9463,-66.9114,15.66,89,75,5.36,CA,1726551264
49,alta,69.9689,23.2717,8.59,81,75,1.54,NO,1726551265
50,hawaiian paradise park,19.5933,-154.9731,23.22,96,100,1.52,US,1726551266
51,invercargill,-46.4,168.35,7.23,65,94,3.13,NZ,1726551018
52,kourou,5.1552,-52.6478,24.5,89,24,3.53,GF,1726551269
53,port mathurin,-19.6833,63.4167,21.66,74,36,7.25,MU,1726551270
54,cestos city,5.46,-9.5828,24.63,89,79,1.97,LR,1726551271
55,chiredzi,-21.05,31.6667,25.25,39,0,4.2,ZW,1726551272
56,boonville,38.9736,-92.7432,20.1,94,0,0.0,US,1726551140
57,diapaga,12.0708,1.7889,23.1,95,77,1.49,BF,1726551274
58,lihue,21.9789,-159.3672,26.65,81,75,7.2,US,1726551145
59,codrington,-38.2667,141.9667,13.66,61,79,8.48,AU,1726551276
60,isafjordur,66.0755,-23.124,4.3,96,100,2.75,IS,1726551277
61,saint-philippe,-21.3585,55.7679,21.75,69,64,4.66,RE,1726551278
62,puerto natales,-51.7236,-72.4875,2.46,94,86,3.89,CL,1726551279
63,athi river,-1.4507,36.9824,16.71,82,75,1.54,KE,1726551281
64,alice springs,-23.7,133.8833,24.75,12,35,4.12,AU,1726551282
65,duki,30.1541,68.5728,31.06,19,0,0.3,PK,1726551283
66,chibougamau,49.9168,-74.3659,19.79,64,75,3.6,CA,1726551284
67,longyearbyen,78.2186,15.6401,4.91,93,75,0.51,SJ,1726551285
68,flin flon,54.7682,-101.865,13.12,65,69,2.12,CA,1726551286
69,wynyard,-41.0,145.7167,13.44,66,98,2.24,AU,1726551287
70,zaozersk,69.4005,32.4476,9.44,92,100,5.35,RU,1726551289
71,howrah,22.5892,88.3103,31.0,79,75,4.12,IN,1726551290
72,kerikeri,-35.2268,173.9474,10.51,77,12,4.92,NZ,1726551293
73,mumford,5.2618,-0.759,23.1,90,29,3.84,GH,1726551294
74,avarua,-21.2078,-159.775,24.03,88,60,2.57,CK,1726551295
75,egilsstadir,65.2653,-14.3948,4.95,100,40,2.06,IS,1726551296
76,lompoc,34.6391,-120.4579,14.03,86,20,3.6,US,1726551297
77,fortuna,40.5982,-124.1573,14.0,94,100,0.0,US,1726551298
78,verkhnevilyuysk,63.4453,120.3167,7.7,53,99,5.78,RU,1726551299
79,byron bay,-28.65,153.6167,18.44,63,1,4.77,AU,1726551300
80,al artawiyah,26.5053,45.3444,33.28,19,0,3.67,SA,1726551301
81,shimoda,34.6667,138.95,29.12,72,19,4.27,JP,1726551302
82,bethel,41.3712,-73.414,14.38,94,100,0.0,US,1726551303
83,nevada,39.2502,-116.7512,4.57,68,60,1.43,US,1726551306
84,sinabang,2.4803,96.3801,25.16,89,100,1.66,ID,1726551307
85,jamestown,42.097,-79.2353,14.45,86,0,2.57,US,1726551308
86,dunedin,-45.8742,170.5036,3.78,86,97,4.02,NZ,1726551309
87,ilulissat,69.2167,-51.1,1.01,93,75,0.0,GL,1726551310
88,constantia,44.1833,28.65,12.38,56,6,6.23,RO,1726551311
89,piacabucu,-10.4056,-36.4344,23.08,76,7,4.12,BR,1726551312
90,fale old settlement,-9.3852,-171.2468,28.06,72,35,1.23,TK,1726551313
91,bilibino,68.0546,166.4372,0.68,78,100,1.03,RU,1726551314
92,briviesca,42.5499,-3.3232,7.16,94,66,1.08,ES,1726551315
93,klyuchi,52.2667,79.1667,10.5,46,5,5.87,RU,1726551317
94,pandan,14.0453,124.1694,25.91,91,100,4.59,PH,1726551318
95,thompson,55.7435,-97.8558,7.09,93,20,0.0,CA,1726551319
96,carloforte,39.145,8.3058,18.04,64,1,1.92,IT,1726551320
97,crane,31.3974,-102.3501,25.86,55,43,6.56,US,1726551321
98,aripuana,-9.1667,-60.6333,23.99,47,3,1.25,BR,1726551322
99,mwatate,-3.5029,38.3795,20.35,75,85,3.69,KE,1726551323
100,wailua homesteads,22.0669,-159.378,24.77,87,75,7.2,US,1726551324
101,mili,6.0815,171.735,28.9,68,71,0.58,MH,1726551325
102,magadan,59.5667,150.8,5.51,84,97,0.76,RU,1726551326
103,susuman,62.7833,148.1667,6.45,47,78,3.34,RU,1726551327
104,hadibu,12.65,54.0333,27.29,75,38,7.69,YE,1726551329
105,angaur state,6.906,134.13,29.11,80,100,7.73,PW,1726551330
106,saguenay,48.4168,-71.0657,21.16,68,20,3.09,CA,1726551331
107,palikir - national government center,6.9248,158.1611,28.41,84,100,2.06,FM,1726551332
108,tiksi,71.6872,128.8694,1.92,98,100,3.1,RU,1726551333
109,atafu village,-8.5421,-172.5159,28.41,70,20,2.25,TK,1726551334
110,hithadhoo,-0.6,73.0833,28.79,74,89,3.69,MV,1726551335
111,puerto leguizamo,-0.1934,-74.7819,22.82,94,36,1.2,CO,1726551336
112,papatowai,-46.5619,169.4708,5.12,67,94,4.73,NZ,1726551337
113,dhidhdhoo,6.8833,73.1,28.35,77,19,6.42,MV,1726551338
114,burang,30.25,81.1667,11.34,47,21,2.74,CN,1726551340
115,anadyr,64.75,177.4833,8.89,81,75,4.0,RU,1726551261
116,dudinka,69.4058,86.1778,4.81,76,27,6.0,RU,1726551342
117,santiago,-33.4569,-70.6483,14.16,57,100,0.89,CL,1726551065
118,ocean shores,46.9737,-124.1563,13.87,90,0,2.24,US,1726551344
119,tralee,52.2704,-9.7026,10.79,92,31,2.34,IE,1726551345
120,pasni,25.2631,63.471,27.93,75,25,5.84,PK,1726551346
121,qaqortoq,60.7167,-46.0333,4.26,86,97,1.3,GL,1726551347
122,enewetak,11.3474,162.3373,28.89,73,98,4.76,MH,1726551348
123,raduzhny,62.0961,77.475,14.32,73,96,5.05,RU,1726551349
124,st. john's,47.5649,-52.7093,17.32,90,100,8.23,CA,1726551350
125,udachny,66.4167,112.4,4.88,72,100,7.76,RU,1726551352
126,severo-yeniseyskiy,60.3725,93.0408,4.31,79,100,4.22,RU,1726551353
127,altay,47.8667,88.1167,16.47,33,45,3.4,CN,1726551354
128,ribeira grande,38.5167,-28.7,21.54,91,91,1.79,PT,1726551355
129,szentlorinc,46.0402,17.9872,11.49,95,99,2.66,HU,1726551356
130,yellowknife,62.456,-114.3525,9.7,99,75,2.57,CA,1726551068
131,touros,-5.1989,-35.4608,23.23,83,5,5.79,BR,1726551358
132,shahrak,34.1074,64.3052,18.7,27,1,5.94,AF,1726551359
133,dali,25.7,100.1833,24.56,60,36,0.8,CN,1726551360
134,chernyshevskiy,63.0128,112.4714,1.67,97,100,4.95,RU,1726551361
135,vila velha,-20.3297,-40.2925,23.86,86,20,1.54,BR,1726551349
136,lebu,-37.6167,-73.65,7.94,93,82,4.01,CL,1726551364
137,pisco,-13.7,-76.2167,14.03,88,2,2.06,PE,1726551365
138,utrik,11.2278,169.8474,28.59,74,86,3.67,MH,1726551366
139,warman,52.3168,-106.5679,11.95,82,40,3.09,CA,1726551367
140,carnarvon,-24.8667,113.6333,28.31,33,0,1.36,AU,1726551368
141,bakanas,44.8081,76.2772,16.07,25,73,9.58,KZ,1726551369
142,aykhal,66.0,111.5,2.16,94,100,6.58,RU,1726551370
143,bangassou,4.7413,22.8184,23.33,83,70,0.35,CF,1726551371
144,nadym,65.5333,72.5167,14.1,80,99,3.28,RU,1726551372
145,georgetown,5.4112,100.3354,28.97,74,40,4.12,MY,1726551142
146,kapuskasing,49.4169,-82.4331,20.0,77,20,3.09,CA,1726551375
147,manoc-manoc,11.9416,121.9428,26.04,95,100,9.58,PH,1726551376
148,bel air north,39.5543,-76.3731,18.41,80,99,0.89,US,1726551377
149,cabo san lucas,22.8909,-109.9124,24.31,78,4,2.24,MX,1726551226
150,espumoso,-28.7247,-52.8497,10.1,92,0,2.05,BR,1726551379
151,albany,42.6001,-73.9662,13.48,70,100,1.09,US,1726551380
152,new norfolk,-42.7826,147.0587,10.38,69,100,5.12,AU,1726551381
153,nar'yan-mar,67.6713,53.087,14.67,76,48,4.52,RU,1726551382
154,wainwright,52.839,-110.8572,13.1,64,31,0.51,CA,1726551383
155,fort bragg,35.139,-79.006,21.22,94,100,5.14,US,1726551384
156,anaconda,46.1285,-112.9423,10.8,90,86,1.53,US,1726551386
157,la gi,10.6667,107.7833,28.63,76,100,7.45,VN,1726551387
158,heihe,50.2441,127.4902,21.32,17,0,7.35,CN,1726551388
159,tadine,-21.55,167.8833,20.2,55,22,7.17,NC,1726551389
160,sungailiat,-1.85,106.1333,29.8,64,100,4.02,ID,1726551390
161,kolonia town,6.964,158.206,29.0,84,100,2.06,FM,1726551391
162,tecumseh,42.0039,-83.9449,13.96,87,0,1.54,US,1726551392
163,bandon,51.7469,-8.7425,13.77,98,15,1.45,IE,1726551393
164,ust-nera,64.5667,143.2,6.35,53,98,3.04,RU,1726551394
165,hotan,37.0997,79.9269,26.49,21,3,2.66,CN,1726551395
166,albania,41.0,20.0,17.99,59,100,1.35,AL,1726551398
167,jijiga,9.35,42.8,20.3,64,77,9.53,ET,1726551399
168,onega,63.9061,38.1404,12.63,53,93,1.61,RU,1726551400
169,bubaque,11.2833,-15.8333,26.38,84,100,6.96,GW,1726551401
170,kapoeta,4.7717,33.5903,28.68,41,55,6.05,SS,1726551402
171,hermanus,-34.4187,19.2345,9.89,79,51,2.31,ZA,1726551403
172,nemuro,43.3236,145.575,17.72,95,91,3.74,JP,1726551404
173,praia,14.9215,-23.5087,25.3,78,75,3.09,CV,1726551405
174,cartagena,10.3997,-75.5144,25.79,81,40,1.54,CO,1726551406
175,west island,-12.1568,96.8225,27.99,61,20,7.72,CC,1726551408
176,pihuamo,19.2499,-103.3828,22.35,97,100,0.7,MX,1726551409
177,taguatinga,-12.3857,-46.5711,24.14,32,1,1.69,BR,1726551410
178,mendaha,-1.0333,103.5833,31.9,59,100,1.19,ID,1726551411
179,rio negrinho,-26.2544,-49.5183,11.0,98,99,1.4,BR,1726551412
180,bredasdorp,-34.5322,20.0403,10.72,80,45,1.27,ZA,1726551413
181,isyangulovo,52.1909,52.1909,16.4,36,1,5.45,RU,1726551414
182,xincheng,33.6333,115.1833,25.4,91,100,8.53,CN,1726551415
183,saipan,15.1355,145.701,31.39,74,40,4.12,MP,1726551416
184,suhbaatar,50.2314,106.2078,16.19,44,2,4.83,MN,1726551419
185,tataouine,32.9297,10.4518,21.05,61,91,1.23,TN,1726551420
186,carbondale,37.7273,-89.2168,17.03,97,20,0.0,US,1726551421
187,plettenberg bay,-34.0527,23.3716,14.3,71,0,0.42,ZA,1726551422
188,dalnegorsk,44.5604,135.5701,22.58,46,2,4.59,RU,1726551423
189,brookings,44.3114,-96.7984,20.78,82,0,5.66,US,1726551424
190,gisborne,-38.6533,178.0042,8.83,89,97,7.58,NZ,1726551425
191,naze,28.3667,129.4833,29.51,77,5,8.09,JP,1726551377
192,east london,-33.0153,27.9116,15.52,94,75,1.03,ZA,1726551427
193,fada,7.25,4.0667,24.37,94,40,1.54,NG,1726551428
194,hasaki,35.7333,140.8333,27.6,79,56,7.51,JP,1726551430
195,siwa oasis,29.2041,25.5195,26.59,49,0,4.42,EG,1726551431
196,qamdo,31.1667,97.2333,17.8,45,78,3.39,CN,1726551432
197,broome,42.2506,-75.833,13.42,70,100,0.45,US,1726551433
198,iskateley,67.6803,53.1512,14.8,75,49,4.54,RU,1726551435
199,jayapura,-2.5333,140.7,33.66,72,47,4.96,ID,1726551436
200,wasagu,11.3764,5.7954,22.64,92,100,0.57,NG,1726551437
201,limassol,34.675,33.0333,25.04,61,20,0.51,CY,1726551438
202,port alfred,-33.5906,26.891,15.1,92,79,3.13,ZA,1726551439
203,bonawon,9.134,122.9193,27.64,82,100,6.76,PH,1726551440
204,nirsa,23.7833,86.7167,31.1,64,100,6.46,IN,1726551442
205,el calafate,-50.3408,-72.2768,4.54,86,33,1.29,AR,1726551443
206,dakhla,23.6848,-15.958,19.55,92,14,6.36,EH,1726551444
207,punta arenas,-53.15,-70.9167,4.06,87,75,4.63,CL,1726551445
208,arraial do cabo,-22.9661,-42.0278,21.2,81,95,7.04,BR,1726551446
209,dapa,9.7594,126.0531,29.43,71,100,4.42,PH,1726551447
210,rongelap,11.1635,166.8941,28.66,72,14,2.85,MH,1726551448
211,bandarbeyla,9.4942,50.8122,30.21,56,24,10.89,SO,1726551449
212,port elizabeth,-33.918,25.5701,15.73,94,75,2.06,ZA,1726551450
213,merizo village,13.2658,144.6691,27.98,90,100,6.06,GU,1726551451
214,uturoa,-16.7333,-151.4333,25.86,84,97,3.18,PF,1726551452
215,weno,7.4515,151.8468,29.97,84,100,3.6,FM,1726551454
216,chul'man,56.8479,124.9104,2.5,84,100,5.17,RU,1726551456
217,piti village,13.4626,144.6933,27.85,88,75,3.09,GU,1726551457
218,nova sintra,14.8667,-24.7167,26.23,77,85,5.36,CV,1726551458
219,papao,-17.75,-149.55,25.82,85,85,3.83,PF,1726551459
220,pohang,36.0322,129.365,31.17,70,49,1.54,KR,1726551460
221,suva,-18.1416,178.4415,21.71,100,75,3.09,FJ,1726551462
222,igarka,67.4667,86.5833,8.41,64,32,5.42,RU,1726551464
223,nyurba,63.2842,118.3319,7.18,59,99,5.9,RU,1726551465
224,muli,2.9167,73.5667,28.71,75,11,5.84,MV,1726551466
225,barclayville,4.6797,-8.2339,24.11,90,100,1.41,LR,1726551467
226,pangoa,-12.1167,-73.0,20.19,75,7,1.32,PE,1726551468
227,inverloch,-38.6333,145.7167,12.99,63,100,6.85,AU,1726551469
228,valle nacional,17.7833,-96.3167,25.06,98,100,1.24,MX,1726551470
229,kailua-kona,19.6406,-155.9956,26.08,95,65,3.03,US,1726551471
230,hengshui,37.7322,115.7011,28.49,45,0,3.25,CN,1726551472
231,lloydminster,53.2835,-110.0016,11.12,76,0,1.03,CA,1726551228
232,margate,51.3813,1.3862,15.83,79,99,0.89,GB,1726551474
233,ancud,-41.8697,-73.8203,6.65,82,71,0.88,CL,1726551476
234,la ronge,55.1001,-105.2842,16.14,55,40,3.6,CA,1726551477
235,matehuala,23.65,-100.65,21.59,76,76,4.92,MX,1726551478
236,sanya,18.2431,109.505,31.09,74,0,3.0,CN,1726551479
237,ghat,24.9647,10.1728,31.35,23,65,2.94,LY,1726551480
238,impfondo,1.6381,18.0667,23.98,80,66,1.03,CG,1726551481
239,vorkuta,67.5,64.0,15.7,87,100,4.77,RU,1726551482
240,caconda,-13.7333,15.0667,18.83,60,2,0.28,AO,1726551483
241,axim,4.8699,-2.2405,23.21,94,4,2.78,GH,1726551484
242,capesterre-belle-eau,16.0432,-61.566,26.01,73,58,6.27,GP,1726551486
243,shamgarh,24.1833,75.6333,28.21,62,14,4.39,IN,1726551488
244,scottburgh,-30.2867,30.7532,18.78,88,100,2.32,ZA,1726551489
245,dadukou,26.5479,101.7054,30.01,53,30,0.98,CN,1726551490
246,buriti alegre,-18.14,-49.0403,19.75,58,20,1.18,BR,1726551491
247,vorgashor,67.5833,63.95,15.63,87,100,4.73,RU,1726551492
248,kajiado,-1.8524,36.7768,17.82,68,87,3.76,KE,1726551493
249,puerto ayacucho,5.6639,-67.6236,24.32,90,56,0.97,VE,1726551494
250,noumea,-22.2763,166.4572,20.29,55,5,5.28,NC,1726551495
251,barysh,53.6553,47.1123,19.65,52,0,3.58,RU,1726551496
252,olonkinbyen,70.9221,-8.7187,1.8,78,100,6.01,SJ,1726551497
253,veinticinco de mayo,-35.4323,-60.1727,11.66,80,100,1.34,AR,1726551499
254,karratha,-20.7377,116.8463,30.43,25,0,7.35,AU,1726551500
255,canico,32.6333,-16.85,22.78,90,40,4.63,PT,1726551501
256,mumbwa,-14.9783,27.0619,25.5,23,0,5.22,ZM,1726551502
257,bogale,16.2833,95.4,31.39,64,100,3.04,MM,1726551503
258,tobelo,1.7284,128.0095,30.54,65,100,3.28,ID,1726551504
259,yung shue wan,22.2333,114.1167,32.6,62,54,4.79,HK,1726551505
260,afaahiti,-17.75,-149.2833,23.9,89,88,5.24,PF,1726551506
261,coquimbo,-29.9533,-71.3436,11.1,91,100,2.06,CL,1726551252
262,kodiak,57.79,-152.4072,9.73,71,0,1.54,US,1726551508
263,seremban,2.7297,101.9381,31.51,81,90,3.17,MY,1726551510
264,tazovsky,67.4667,78.7,6.6,79,99,3.01,RU,1726551511
265,robertsport,6.7533,-11.3686,23.54,93,7,1.65,LR,1726551512
266,kiunga,-6.1219,141.2906,31.52,58,91,1.75,PG,1726551513
267,gostyn,51.8825,17.0123,13.34,76,6,3.58,PL,1726551514
268,sisimiut,66.9395,-53.6735,1.66,77,99,2.21,GL,1726551516
269,ebon,4.582,168.6964,29.18,64,33,1.63,MH,1726551518
270,haiku-pauwela,20.9219,-156.3051,25.07,78,40,8.49,US,1726551519
271,san patricio,28.017,-97.5169,23.97,78,0,3.41,US,1726551521
272,turkmenbasy,40.0222,52.9552,25.43,18,0,5.14,TM,1726551560
273,badger,64.8,-147.5333,6.57,90,100,4.63,US,1726551562
274,gaspe,48.8334,-64.4819,22.12,64,40,4.12,CA,1726551563
275,okha,53.5739,142.9478,12.21,84,100,5.37,RU,1726551564
276,lagoa,39.05,-27.9833,22.7,81,100,5.23,PT,1726551565
277,gadzhiyevo,69.2551,33.3362,9.27,93,99,5.37,RU,1726551566
278,fort wellington,6.4,-57.6,27.75,80,3,5.18,GY,1726551567
279,thinadhoo,0.5333,72.9333,29.17,74,36,4.18,MV,1726551568
280,dryden,49.7833,-92.7503,16.16,100,100,2.57,CA,1726551569
281,san antonio de pale,-1.4014,5.6325,24.72,85,100,6.58,GQ,1726551570
282,lubao,14.9167,120.55,26.84,71,100,1.15,PH,1726551573
283,alliance,40.9153,-81.1059,15.36,73,100,3.27,US,1726551574
284,walvis bay,-22.9575,14.5053,11.81,90,49,1.78,NA,1726551575
285,antofagasta,-23.65,-70.4,14.6,86,0,1.13,CL,1726551576
286,bugana,7.9992,7.5836,24.14,93,99,0.91,NG,1726551577
287,salinopolis,-0.6136,-47.3561,26.36,79,1,5.27,BR,1726551578
288,leava,-14.3,-178.1667,26.96,75,56,2.11,WF,1726551579
289,chardara,41.2547,67.9692,24.22,38,73,0.96,KZ,1726551580
290,okhotsk,59.3833,143.3,11.49,59,29,3.82,RU,1726551583
291,tete,-16.1564,33.5867,22.05,40,0,1.03,MZ,1726551584
292,tintafor,8.6267,-13.215,26.09,83,75,3.09,SL,1726551585
293,emerald,-23.5333,148.1667,26.66,19,100,2.85,AU,1726551587
294,mahdia,35.5047,11.0622,23.43,64,67,1.17,TN,1726551588
295,xichang,27.8964,102.2634,26.47,60,16,1.44,CN,1726551589
296,ardestan,33.3761,52.3694,26.71,26,0,1.9,IR,1726551590
297,yarmouth,41.7057,-70.2286,14.92,94,0,0.89,US,1726551591
298,nova londrina,-22.7658,-52.985,15.99,84,0,4.39,BR,1726551592
299,whitehorse,60.7161,-135.0538,7.13,84,75,0.0,CA,1726551595
300,tabora,-5.0167,32.8,25.0,41,53,5.48,TZ,1726551596
301,shiqian,27.5225,108.2281,30.12,59,88,2.05,CN,1726551597
302,tolanaro,-25.0319,46.9987,21.04,88,40,0.0,MG,1726551598
303,luderitz,-26.6481,15.1594,11.97,84,0,6.27,NA,1726551599
304,kingston,17.997,-76.7936,30.53,70,20,5.66,JM,1726551600
305,havre,49.5833,0.3333,11.87,94,0,2.06,FR,1726551601
306,inhambane,-23.865,35.3833,27.31,69,56,3.27,MZ,1726551602
307,poronaysk,49.2167,143.1167,19.73,52,28,4.51,RU,1726551603
308,guankou,28.15,113.6333,32.41,54,100,2.23,CN,1726551604
309,mount isa,-20.7333,139.5,25.87,34,97,6.17,AU,1726551606
310,vila franca do campo,37.7167,-25.4333,23.23,84,96,2.17,PT,1726551607
311,maryville,35.7565,-83.9705,19.54,54,75,5.66,US,1726551492
312,selfoss,63.9331,-20.9971,8.91,88,98,5.04,IS,1726551609
313,pesqueira,-8.3578,-36.6964,16.77,91,75,4.85,BR,1726551610
314,arkalyk,50.2486,66.9114,10.94,35,25,11.51,KZ,1726551611
315,noosa heads,-26.3833,153.15,19.65,65,63,5.5,AU,1726551612
316,caazapa,-26.15,-56.4,13.51,71,0,1.81,PY,1726551613
317,ko pha ngan,9.7578,100.0291,29.38,74,100,9.68,TH,1726551614
318,colonia,50.9333,6.95,13.67,86,100,1.54,DE,1726551566
319,rawlins,41.7911,-107.2387,15.94,41,0,6.17,US,1726551616
320,moussoro,13.6408,16.4901,26.66,59,69,3.83,TD,1726551618
321,boca do acre,-8.7522,-67.3978,23.85,50,0,1.59,BR,1726551619
322,chonchi,-42.6128,-73.8092,5.07,71,99,1.25,CL,1726551620
323,graaff-reinet,-32.2522,24.5308,10.8,80,39,1.53,ZA,1726551621
324,ondjiva,-17.0667,15.7333,16.02,16,0,1.03,AO,1726551622
325,port-vila,-17.7338,168.3219,23.78,69,100,4.12,VU,1726551623
326,marquette,46.5333,-87.6335,17.5,83,58,3.01,US,1726551624
327,chuhar jamali,24.3895,67.9923,29.22,65,92,5.58,PK,1726551625
328,taroa,8.7058,171.2275,28.56,74,70,3.48,MH,1726551626
329,ghanzi,-21.5667,21.7833,21.37,16,51,5.96,BW,1726551627
330,chifeng,42.2683,118.9636,17.34,80,98,2.05,CN,1726551628
331,bressanone,46.715,11.656,9.85,96,100,1.56,IT,1726551630
332,mahibadhoo,3.7833,72.9667,28.83,75,27,5.8,MV,1726551631
333,zhaotong,27.3167,103.7167,23.48,62,55,3.22,CN,1726551632
334,palangkaraya,-2.2,113.8333,35.65,33,47,1.81,ID,1726551633
335,teterow,53.7833,12.5667,16.09,98,36,3.5,DE,1726551634
336,new plymouth,-39.0667,174.0833,5.73,100,78,4.97,NZ,1726551635
337,ryotsu-minato,38.0833,138.4333,25.8,66,15,1.93,JP,1726551636
338,olinda,-8.0089,-34.8553,25.85,78,40,5.14,BR,1726551637
339,martapura,-3.4167,114.85,35.05,43,40,3.6,ID,1726551638
340,pagar alam,-4.0167,103.2667,28.75,46,93,2.34,ID,1726551639
341,arar,30.9753,41.0381,25.01,44,0,8.23,SA,1726551640
342,tamanrasset,22.785,5.5228,25.51,44,5,1.38,DZ,1726551642
343,bikenibeu village,1.3673,173.1241,29.98,70,20,1.54,KI,1726551643
344,acarau,-2.8856,-40.12,25.07,81,7,8.42,BR,1726551644
345,flying fish cove,-10.4217,105.6791,26.82,73,40,4.12,CX,1726551645
346,roma,43.2128,-75.4557,15.24,94,0,2.06,US,1726551646
347,callao,-12.0667,-77.15,16.16,82,100,5.14,PE,1726551647
348,palmaner,13.2,78.75,30.88,42,14,7.62,IN,1726551648
349,bedele,8.456,36.353,17.02,91,81,0.45,ET,1726551649
350,el granada,37.5027,-122.4694,12.79,87,100,1.54,US,1726551650
351,coahuayana de hidalgo,18.7,-103.6583,26.32,90,100,1.06,MX,1726551651
352,general villegas,-35.0328,-63.0125,17.66,38,100,7.1,AR,1726551652
353,bam,29.106,58.357,32.21,16,0,3.15,IR,1726551654
354,stjordalshalsen,63.4681,10.9262,10.99,93,75,2.06,NO,1726551655
355,alaghsas,17.0187,8.0168,25.94,65,0,4.12,NE,1726551656
356,la'ie,21.6477,-157.9253,26.19,85,100,1.79,US,1726551657
357,puerto montt,-41.4698,-72.9447,2.46,93,100,1.03,CL,1726551658
358,chisineu-cris,46.5333,21.5167,11.87,81,25,2.91,RO,1726551660
359,high springs,29.8269,-82.5968,21.66,95,49,1.79,US,1726551661
360,tambopata,-12.7333,-69.1833,21.21,57,26,1.07,PE,1726551662
361,mantua,45.1667,10.7833,14.39,88,100,0.89,IT,1726551664
362,port douglas,-16.4833,145.4667,22.63,85,100,8.14,AU,1726551394
363,camana,-16.6228,-72.7111,15.51,88,20,3.14,PE,1726551666
364,gaigeturi,33.4644,126.3183,28.03,89,75,2.06,KR,1726551667
365,petropavlovsk-kamchatsky,53.0452,158.6483,13.33,44,75,4.0,RU,1726551540
366,tamandare,-8.7597,-35.1047,22.86,83,8,2.9,BR,1726551669
367,gering,41.8258,-103.6605,18.84,55,0,2.57,US,1726551670
368,valparaiso,-33.0393,-71.6273,11.8,93,75,4.63,CL,1726551671
369,ingeniero jacobacci,-41.3427,-69.5448,7.17,46,89,0.78,AR,1726551672
370,holmsund,63.706,20.3641,12.19,93,100,1.54,SE,1726551673
371,pacific grove,36.6177,-121.9166,13.93,91,100,1.79,US,1726551674
372,mejit,10.2753,170.8646,27.94,79,28,4.0,MH,1726551676
373,zouerate,22.7187,-12.4521,28.04,34,20,2.82,MR,1726551677
374,atlantic city,39.3643,-74.4229,21.43,88,100,3.6,US,1726551678
375,ust-tsilma,65.441,52.1498,16.5,63,48,4.05,RU,1726551679
376,boa vista,2.8197,-60.6733,28.99,65,0,2.57,BR,1726551680
377,kalix,65.853,23.1565,12.34,80,94,2.42,SE,1726551681
378,kirakira,-10.4544,161.9205,27.72,83,20,2.57,SB,1726551682
379,bardai,11.65,7.2333,22.34,89,96,1.8,NG,1726551683
380,island harbour,50.724,-1.2758,10.59,3,75,5.14,GB,1726551684
381,kabinda,-6.1333,24.4833,25.99,59,13,3.51,CD,1726551685
382,tosontsengel,48.7567,98.2839,15.32,21,0,4.24,MN,1726551686
383,lata,40.1629,-8.3327,13.86,43,5,2.35,PT,1726551688
384,yuzhno-kurilsk,44.0306,145.8556,18.97,90,91,2.23,RU,1726551689
385,elko,41.0002,-115.5012,7.58,82,58,1.79,US,1726551459
386,argostolion,38.1811,20.489,23.75,42,40,2.06,GR,1726551691
387,livingston,55.9029,-3.5226,12.84,81,100,2.39,GB,1726551692
388,du quoin,38.0114,-89.2362,17.67,95,35,1.16,US,1726551693
389,grand falls-windsor,48.9332,-55.6649,15.84,88,38,3.02,CA,1726551694
390,fort irwin,35.2627,-116.6848,16.74,34,0,2.57,US,1726551695
391,east grand forks,47.93,-97.0245,20.32,89,75,7.72,US,1726551696
392,christchurch,-43.5333,172.6333,8.11,49,53,8.23,NZ,1726551566
393,lake city,30.1897,-82.6393,19.03,100,0,0.0,US,1726551699
394,road town,18.4167,-64.6167,28.74,68,48,7.58,VG,1726551700
395,sao raimundo nonato,-9.0153,-42.6994,24.48,41,0,2.28,BR,1726551701
396,thunder bay,48.4001,-89.3168,17.95,100,75,1.54,CA,1726551702
397,saint-francois,46.4154,3.9054,9.75,93,0,1.03,FR,1726551703
398,dame-marie,18.5667,-74.4167,27.46,84,65,1.44,HT,1726551704
399,dilling,12.05,29.65,24.38,78,100,1.73,SD,1726551705
400,puerto deseado,-47.7503,-65.8938,10.37,45,100,10.82,AR,1726551706
401,bairnsdale,-37.8333,147.6167,16.14,58,79,1.34,AU,1726551707
402,al burayqah,30.4062,19.5739,25.97,61,15,6.57,LY,1726551708
403,north bend,43.4065,-124.2243,14.93,88,100,3.6,US,1726551709
404,jutai,-5.1833,-68.9,25.34,75,97,1.0,BR,1726551712
405,tual,-5.6667,132.75,27.22,81,82,4.93,ID,1726551713
406,ulladulla,-35.35,150.4667,16.53,53,35,5.96,AU,1726551714
407,kruisfontein,-34.0033,24.7314,13.58,66,0,2.35,ZA,1726551715
408,yukhnov,54.7444,35.2297,17.52,54,19,3.06,RU,1726551716
409,portland,45.5234,-122.6762,16.24,76,3,0.45,US,1726551524
410,puttalam,8.0362,79.8283,28.87,75,83,7.96,LK,1726551718
411,oeiras,-7.0253,-42.1311,26.3,41,38,2.81,BR,1726551719
412,engenheiro beltrao,-23.7972,-52.2692,14.09,92,3,1.91,BR,1726551722
413,kittila,67.6647,24.8936,10.08,93,100,2.06,FI,1726551723
414,rehoboth,-23.3167,17.0833,12.24,22,0,1.33,NA,1726551724
415,laihia,62.9761,22.0114,8.05,100,40,0.0,FI,1726551725
416,as sulayyil,20.4607,45.5779,35.52,11,5,2.53,SA,1726551726
417,tura,25.5198,90.2201,30.51,72,64,1.62,IN,1726551727
418,pizarro,4.9533,-77.366,26.91,83,80,2.01,CO,1726551729
419,midvagur,62.0511,-7.1939,11.46,93,100,7.72,FO,1726551732
420,maragogi,-9.0122,-35.2225,22.56,82,8,2.83,BR,1726551733
421,pervomaysk,48.0443,30.8507,20.74,33,100,7.32,UA,1726551734
422,keren,15.7778,38.4581,21.92,72,76,1.23,ER,1726551736
423,argo,37.6333,22.7333,22.25,51,4,1.0,GR,1726551737
424,caleta de carquin,-11.0925,-77.6267,15.3,91,8,4.75,PE,1726551738
425,kalmunai,7.4167,81.8167,33.83,49,25,4.44,LK,1726551740
426,fianarantsoa,-21.4333,47.0833,23.97,25,5,2.2,MG,1726551741
427,sao paulo de olivenca,-3.3783,-68.8725,22.74,94,100,1.08,BR,1726551742
428,kalamnuri,19.6667,77.3333,28.01,59,12,5.35,IN,1726551743
429,tuba city,36.135,-111.2399,21.88,42,1,3.13,US,1726551744
430,kavaratti,10.5669,72.642,27.77,79,61,6.03,IN,1726551745
431,manitowoc,44.0667,-87.8001,17.43,59,100,1.89,US,1726551726
432,payson,40.0444,-111.7321,19.41,36,40,0.0,US,1726551747
433,moshi,-3.35,37.3333,23.65,60,30,3.5,TZ,1726551748
434,al muwayh,22.4333,41.7583,33.1,14,5,4.21,SA,1726551749
435,cuenca,-2.8833,-78.9833,12.47,96,98,1.59,EC,1726551751
436,tingi,-11.3,35.0333,22.38,50,8,3.14,TZ,1726551752
437,macau,22.2006,113.5461,31.85,74,20,7.2,MO,1726551753
438,khandyga,62.6667,135.6,7.7,54,99,3.2,RU,1726551754
439,amos,48.5669,-78.1162,18.75,67,75,3.49,CA,1726551755
440,port macquarie,-31.4333,152.9167,18.37,63,9,2.24,AU,1726551756
441,morristown,36.214,-83.2949,14.41,89,100,2.06,US,1726551757
442,yantzaza,-3.8278,-78.7594,21.63,100,98,1.51,EC,1726551758
443,joaquin v. gonzalez,-25.0833,-64.1833,16.11,43,0,2.62,AR,1726551759
444,newman,37.3138,-121.0208,16.13,69,41,1.34,US,1726551760
445,fuerte olimpo,-21.0415,-57.8738,18.54,55,0,1.59,PY,1726551762
446,azacualpa,15.3433,-88.5514,23.2,99,52,0.73,HN,1726551763
447,al jawf,29.5,38.75,24.32,44,0,5.65,SA,1726551764
448,nuuk,64.1835,-51.7216,1.34,100,100,1.03,GL,1726551765
449,maych'ew,12.7875,39.5422,17.4,63,98,0.67,ET,1726551766
450,natal,-5.795,-35.2094,23.12,83,40,2.57,BR,1726551767
451,troy,42.6056,-83.1499,15.95,84,0,1.54,US,1726551768
452,betio village,1.358,172.9211,30.02,64,100,2.17,KI,1726551769
453,gizo,-8.103,156.8419,28.21,73,20,3.07,SB,1726551770
454,buckeye,33.3703,-112.5838,26.7,27,0,5.66,US,1726551628
455,el fasher,13.6279,25.3494,27.89,51,99,3.63,SD,1726551772
456,minas de marcona,-15.2119,-75.1103,12.22,78,3,3.3,PE,1726551774
457,nova vicosa,-17.8919,-39.3719,22.8,85,0,3.8,BR,1726551775
458,ingeniero guillermo n. juarez,-23.9,-61.85,16.99,35,0,3.8,AR,1726551776
459,quartu sant'elena,39.2419,9.1839,15.25,79,0,3.09,IT,1726551777
460,melekeok village,7.4957,134.6367,30.31,79,100,4.12,PW,1726551778
461,ar rutbah,33.0381,40.2848,24.25,46,0,2.14,IQ,1726551779
462,geraldton,-28.7667,114.6,29.23,23,0,3.09,AU,1726551780
463,abong mbang,3.9833,13.1833,20.08,99,100,1.34,CM,1726551781
464,cooma,-36.2333,149.1333,15.51,33,19,3.88,AU,1726551782
465,port saint john's,-31.6229,29.5448,17.98,86,100,0.42,ZA,1726551783
466,puerto baquerizo moreno,-0.9,-89.6,21.04,84,36,7.46,EC,1726551785
467,nhamunda,-2.1861,-56.7131,27.32,48,22,1.03,BR,1726551787
468,porto novo,6.4965,2.6036,24.9,92,100,1.3,BJ,1726551788
469,hailin,44.5833,129.4167,22.36,54,70,3.12,CN,1726551789
470,ixtapa,20.7,-105.2,27.57,89,75,1.54,MX,1726551790
471,puerto aysen,-45.4,-72.7,5.25,99,99,2.95,CL,1726551791
472,revelstoke,50.9832,-118.2023,14.01,77,0,1.54,CA,1726551715
473,mitsamiouli,-11.3847,43.2844,25.55,75,3,5.35,KM,1726551793
474,fort st. john,56.2499,-120.8529,11.94,76,75,3.09,CA,1726551794
475,bel ombre,-4.6167,55.4167,28.91,74,40,8.23,SC,1726551795
476,tangalle,6.024,80.7911,32.11,58,55,7.45,LK,1726551797
477,harper,4.375,-7.7169,23.92,89,100,0.93,LR,1726551798
478,calama,-22.4667,-68.9333,5.27,16,0,6.17,CL,1726551799
479,katabu,-4.9333,122.5167,33.11,45,74,1.31,ID,1726551800
480,sassandra,4.95,-6.0833,23.34,94,100,1.13,CI,1726551801
481,huarmey,-10.0681,-78.1522,15.3,93,4,4.28,PE,1726551802
482,pangody,65.85,74.4859,11.49,78,100,0.82,RU,1726551803
483,labytnangi,66.6572,66.4183,19.14,69,99,2.23,RU,1726551804
484,luanda,-8.8368,13.2343,23.0,83,75,1.54,AO,1726551805
485,kavieng,-2.5744,150.7967,29.43,73,36,7.04,PG,1726551809
486,broken hill,-31.95,141.4333,20.26,18,0,1.82,AU,1726551810
487,bol,13.4586,14.7147,27.33,83,28,4.75,TD,1726551811
488,lensk,60.7253,114.9278,6.77,72,97,6.13,RU,1726551812
489,salalah,17.0151,54.0924,28.05,69,75,1.03,OM,1726551813
490,tazacorte,28.629,-17.9293,20.54,73,20,1.54,ES,1726551814
491,telimele,10.9167,-13.3333,20.53,99,100,1.21,GN,1726551815
492,morehead city,34.7229,-76.726,24.7,94,95,3.58,US,1726551816
493,divnoye,45.9089,43.3547,21.33,38,100,7.36,RU,1726551817
494,attapeu,14.8,106.8333,31.78,67,100,1.76,LA,1726551819
495,hami,42.8,93.45,29.11,12,7,1.06,CN,1726551820
496,sakaiminato,35.55,133.2333,30.99,84,40,4.63,JP,1726551821
497,sola,-13.8833,167.55,25.06,82,95,11.16,VU,1726551822
498,port lincoln,-34.7333,135.8667,17.74,35,0,5.75,AU,1726551823
499,sungai raya,0.7,108.9,31.47,53,81,5.85,ID,1726551824
500,vernon,50.2581,-119.2691,14.84,64,41,1.54,CA,1726551825
501,veraval,20.9,70.3667,28.68,65,98,3.48,IN,1726551826
502,ruayer,43.0537,-5.5502,6.99,79,89,0.9,ES,1726551827
503,kuta,-8.7233,115.1723,29.97,66,20,3.09,ID,1726551828
504,gua musang,4.8823,101.9644,24.02,98,100,0.6,MY,1726551829
505,verdal,63.7933,11.4817,11.57,86,100,1.31,NO,1726551831
506,victoria point,-27.5833,153.3,21.83,58,5,1.79,AU,1726551832
507,tsetserleg,47.475,101.4542,18.43,13,0,2.35,MN,1726551833
508,bria,6.5423,21.9863,22.25,94,54,0.73,CF,1726551834
509,lewistown,40.5992,-77.5714,12.54,97,0,0.0,US,1726551835
510,saint-pierre,-21.3393,55.4781,24.82,57,0,2.57,RE,1726551836
511,constitucion,-35.3333,-72.4167,10.51,81,100,0.66,CL,1726551837
512,mitu,1.1983,-70.1733,23.38,87,28,1.51,CO,1726551838
513,menaka,15.9182,2.4022,30.39,44,100,3.13,ML,1726551839
514,sarkand,45.41,79.9186,15.07,29,89,3.77,KZ,1726551840
515,storm lake,42.6411,-95.2097,20.12,88,71,3.6,US,1726551842
516,chu,43.5983,73.7614,21.61,24,67,3.47,KZ,1726551843
517,gamba,-2.65,10.0,23.82,91,100,3.38,GA,1726551844
518,dabhol,17.6,73.1667,28.23,67,61,1.91,IN,1726551845
519,marano di napoli,40.8976,14.1905,16.22,78,75,0.51,IT,1726551846
520,corner brook,48.9667,-57.9484,13.95,98,62,1.18,CA,1726551847
521,kataba,8.4604,-0.7732,24.0,88,100,1.46,GH,1726551848
522,san juan,-31.5375,-68.5364,18.47,27,87,6.34,AR,1726551849
523,altagracia de orituco,9.8601,-66.3814,22.63,94,100,1.24,VE,1726551850
524,kayangel,8.0823,134.7173,28.83,78,100,9.87,PW,1726551851
525,narasannapeta,18.4167,84.05,32.09,59,100,3.53,IN,1726551852
526,akureyri,65.6835,-18.0878,6.96,87,75,3.09,IS,1726551854
527,las higueras,-33.0923,-64.289,13.0,36,69,8.25,AR,1726551855
528,paradip garh,20.3167,86.6167,31.29,65,95,5.59,IN,1726551856
529,lincoln city,44.9582,-124.0179,13.43,91,44,2.62,US,1726551857
530,smirnovo,54.5125,69.4222,12.02,52,2,2.11,KZ,1726551858
531,excelsior springs,39.3392,-94.2261,22.24,76,53,3.05,US,1726551859
532,navlya,52.8281,34.4989,19.95,44,11,3.85,RU,1726551860
533,sakata,38.9167,139.855,27.1,61,75,3.09,JP,1726551861
534,olovyannaya,50.95,115.5667,18.88,35,1,2.59,RU,1726551862
535,shalkar,47.8288,59.6258,13.89,35,1,10.6,KZ,1726551863
536,greymouth,-42.4667,171.2,7.99,65,30,2.66,NZ,1726551865
537,ono,34.85,134.9333,32.17,56,84,2.98,JP,1726551866
538,lago da pedra,-4.3333,-45.1667,22.91,89,8,1.59,BR,1726551867
539,richards bay,-28.783,32.0377,18.84,93,100,0.76,ZA,1726551868
540,queenstown,-31.8976,26.8753,13.08,71,72,0.38,ZA,1726551869
541,bangkok,13.75,100.5167,33.9,51,100,4.64,TH,1726551798
542,gunjur,13.2019,-16.7339,24.04,100,75,0.0,GM,1726551872
543,lazaro cardenas,17.9583,-102.2,27.31,85,100,2.16,MX,1726551873
544,miquelon,47.0975,-56.3814,15.99,91,60,10.31,PM,1726551874
545,kyshtovka,56.555,76.6271,11.88,56,26,2.34,RU,1726551876
546,lianghu,29.9915,120.8985,32.67,57,33,4.08,CN,1726551877
547,metu,8.3,35.5833,16.39,96,100,0.44,ET,1726551878
548,yuncheng,35.0231,110.9928,32.47,43,5,6.05,CN,1726551880
549,dazuocun,24.8862,118.9643,28.42,84,1,14.61,CN,1726551881
550,sinop,41.7711,34.8709,17.7,71,0,1.07,TR,1726551882
551,sogndal,61.2283,7.1003,11.21,100,75,0.0,NO,1726551883
552,bonthe,7.5264,-12.505,24.36,88,29,0.16,SL,1726551884
553,yangquan,37.8575,113.5633,26.84,59,5,3.53,CN,1726551885
554,babol,36.5513,52.679,25.62,40,0,1.74,IR,1726551887
555,rumoi,43.9344,141.6428,19.08,89,95,6.29,JP,1726551888
556,nagqu,31.5,92.0,14.4,39,6,1.05,CN,1726551889
557,barcelos,41.5388,-8.6151,18.44,39,9,4.68,PT,1726551890
558,bayji,34.9311,43.487,31.17,28,0,4.94,IQ,1726551891
559,kone,-21.0595,164.8658,21.31,50,30,4.63,NC,1726551892
560,polyarnyy,69.1989,33.4478,8.98,94,99,4.75,RU,1726551893
561,krotovka,53.2858,51.1686,18.03,36,0,4.31,RU,1726551894
562,beacon square,28.2086,-82.7554,24.98,91,64,1.34,US,1726551895
563,birao,10.2849,22.7882,23.7,93,99,1.44,CF,1726551896
564,altai,46.3722,96.2583,15.86,19,0,6.96,MN,1726551898
565,mao,39.8885,4.2658,19.31,63,40,8.75,ES,1726551899
